{
"type": "FeatureCollection",
"crs": { "type": "name", "properties": { "name": "urn:ogc:def:crs:OGC:1.3:CRS84" } },
                                                                                
"features": [
{ "type": "Feature", "properties": { "OBJECTID": 1007, "Name": "BCycle", "Status": "EX", "Year": 2011, "Jurisdicti": null, "Location": "229 W Gilman Street", "Source": "Ortho 2013", "Comments": null, "created_us": null, "created_da": null, "last_edite": "PLJPG", "last_edi_1": "2016-01-15T20:32:43.000Z", "ExtID": "15" }, "geometry": { "type": "Point", "coordinates": [ -89.392464853798799, 43.075292724710806 ] } },
{ "type": "Feature", "properties": { "OBJECTID": 1008, "Name": "BCycle", "Status": "EX", "Year": 2011, "Jurisdicti": null, "Location": "150 North Shore Drive - Brittingham Park", "Source": "Ortho 2013", "Comments": null, "created_us": null, "created_da": null, "last_edite": "PLJPG", "last_edi_1": "2016-01-15T20:31:12.000Z", "ExtID": "16" }, "geometry": { "type": "Point", "coordinates": [ -89.388884270715891, 43.065082119006725 ] } },
{ "type": "Feature", "properties": { "OBJECTID": 1009, "Name": "BCycle", "Status": "EX", "Year": 2011, "Jurisdicti": null, "Location": "677 W Washington Avenue", "Source": "Ortho 2013", "Comments": null, "created_us": null, "created_da": null, "last_edite": "PLJPG", "last_edi_1": "2016-01-15T20:31:17.000Z", "ExtID": "17" }, "geometry": { "type": "Point", "coordinates": [ -89.394264502367307, 43.06736154001505 ] } },
{ "type": "Feature", "properties": { "OBJECTID": 1010, "Name": "BCycle", "Status": "EX", "Year": 2011, "Jurisdicti": null, "Location": "N. Park Street at Spring Street", "Source": "Ortho 2013", "Comments": null, "created_us": null, "created_da": null, "last_edite": "PLJPG", "last_edi_1": "2016-01-15T20:31:03.000Z", "ExtID": "18" }, "geometry": { "type": "Point", "coordinates": [ -89.401295087225535, 43.069528498847482 ] } },
{ "type": "Feature", "properties": { "OBJECTID": 1011, "Name": "BCycle", "Status": "EX", "Year": 2011, "Jurisdicti": null, "Location": "619 State Street", "Source": "Ortho 2013", "Comments": null, "created_us": null, "created_da": null, "last_edite": "PLJPG", "last_edi_1": "2016-01-15T20:32:29.000Z", "ExtID": "19" }, "geometry": { "type": "Point", "coordinates": [ -89.396611651424919, 43.07472338595538 ] } },
{ "type": "Feature", "properties": { "OBJECTID": 1012, "Name": "BCycle", "Status": "EX", "Year": 2012, "Jurisdicti": null, "Location": "381 N Lake Street", "Source": "Ortho 2013", "Comments": null, "created_us": null, "created_da": null, "last_edite": "PLJPG", "last_edi_1": "2016-01-15T20:32:34.000Z", "ExtID": "20" }, "geometry": { "type": "Point", "coordinates": [ -89.397279850908831, 43.072983826916278 ] } },
{ "type": "Feature", "properties": { "OBJECTID": 1022, "Name": "BCycle", "Status": "EX", "Year": 2012, "Jurisdicti": null, "Location": "504 University Avenue", "Source": "Ortho 2013", "Comments": null, "created_us": null, "created_da": null, "last_edite": "PLJPG", "last_edi_1": "2016-01-15T20:32:39.000Z", "ExtID": "30" }, "geometry": { "type": "Point", "coordinates": [ -89.394258647796264, 43.073272912177622 ] } },
{ "type": "Feature", "properties": { "OBJECTID": 1024, "Name": "BCycle", "Status": "EX", "Year": 2012, "Jurisdicti": null, "Location": "633 Langdon Street", "Source": null, "Comments": null, "created_us": "PLJPG", "created_da": "2014-03-24T11:37:25.000Z", "last_edite": "PLJPG", "last_edi_1": "2016-01-15T20:32:23.000Z", "ExtID": "32" }, "geometry": { "type": "Point", "coordinates": [ -89.397038435671803, 43.075738895163092 ] } },
{ "type": "Feature", "properties": { "OBJECTID": 1030, "Name": "BCycle", "Status": "EX", "Year": 2011, "Jurisdicti": null, "Location": "699 North Park Street", "Source": null, "Comments": null, "created_us": "PLJPG", "created_da": "2015-06-15T18:45:09.000Z", "last_edite": "PLJPG", "last_edi_1": "2016-01-15T20:30:58.000Z", "ExtID": "38" }, "geometry": { "type": "Point", "coordinates": [ -89.40062855088695, 43.077022751491917 ] } }
]
}
